{"type": "FeatureCollection", "features": [{"geometry": {"type": "Point", "coordinates": [153.42305556, -27.97388889]}, "type": "Feature", "properties": {"sentences": ["The Nerang River is a perennial river located in South East Queensland, Australia.", "Its catchment lies within the Gold Coast local government area and covers an area of 490 square kilometres (190 sq mi).", "The river is approximately 62 kilometres (39 mi) in length.", "== Course and features == The Nerang River rises in the McPherson Range in the Numinbah Valley on the New South Wales and Queensland border and heads north, then east where it flows through Nerang and reaching its mouth in the Gold Coast Broadwater at Sou", "Major crossings of the river occur at Nerang where the river is crossed by the Pacific Motorway and at Southport where the river is crossed by the Gold Coast Highway.", "The Nerang River catchment is the largest and most significant river system on the Gold Coast.", "The river's mouth was once located much further south.", "The route would connect the Gold Coast Highway Bridge crossing of the Nerang River at Main Beach to Pacific Fair Shopping Centre at Broadbeach.", "The route includes The western facing beaches of Main Beach The anabranch foreshores of McIntosh Island."], "type": "waterway", "name": "Nerang River", "om_id": 252989358}}, {"geometry": {"type": "Point", "coordinates": [144.816, -37.795]}, "type": "Feature", "properties": {"sentences": ["Its local government area is the City of Brimbank.", "It is bounded by Forrest Street in the north, Kororoit Creek in the east, Boundary Road in the south and the Western Ring Road in the west."], "type": "place", "name": "Sunshine West", "om_id": 2586287914}}, {"geometry": {"type": "Point", "coordinates": [139.78055556, -37.08777778]}, "type": "Feature", "properties": {"sentences": ["Guichen Bay Conservation Park is a protected area in the Australian state of South Australia overlooking Guichen Bay located in the gazetted locality of Mount Benson about 8 kilometres (5.0 mi) north of the town centre of Robe."], "type": "boundary leisure", "name": "Guichen Bay Conservation Park", "om_id": 54844033}}, {"geometry": {"type": "Point", "coordinates": [145.0902, -37.8106]}, "type": "Feature", "properties": {"type": "leisure", "name": "Maranoa Gardens", "om_id": 28883670}}, {"geometry": {"type": "Point", "coordinates": [150.90638889, -33.77111111]}, "type": "Feature", "properties": {"sentences": ["Blacktown is a suburb in the City of Blacktown, in Greater Western Sydney, in the state of New South Wales, Australia.", "Blacktown is located 34 kilometres west of the Sydney central business district.", "Blacktown is the largest of any suburb or township in New South Wales and is one of the most multicultural places in Sydney.", "== Commercial area ==  The Blacktown Commercial Business District is located close to Blacktown railway station.", "Blacktown railway station is on the North Shore, Northern & Western Line of the Sydney Trains network.", "Blacktown is a terminus of the North-West T-way.", "Dictionary of Sydney.", "Dictionary of Sydney."], "type": "railway", "name": "Blacktown", "om_id": 58057342}}, {"geometry": {"type": "Point", "coordinates": [130.8819, -12.3753]}, "type": "Feature", "properties": {"sentences": ["Casuarina Square, the largest shopping centre in the Northern Territory, is located in Casuarina in Darwin's northern suburbs.", "The shopping centre is located 14 km north of Darwin city centre."], "type": "shop landuse", "name": "Casuarina Square", "om_id": 240128126}}, {"geometry": {"type": "Point", "coordinates": [145.356, -37.94]}, "type": "Feature", "properties": {"sentences": ["Belgrave South is a locality within, and a suburb of, Greater Melbourne mainly beyond the Melbourne metropolitan area Urban Growth Boundary, 39 km south-east from Melbourne's central business district.", "Its local government area is the Shire of Yarra Ranges.", "It is positioned at the foothills of the Dandenong Ranges and bordered by the suburbs of Belgrave, Belgrave Heights, Lysterfield and the localities of Narre Warren East and Selby."], "type": "place", "name": "Belgrave South", "om_id": 2597859148}}, {"geometry": {"type": "Point", "coordinates": [130.82166667, -12.45861111]}, "type": "Feature", "properties": {"type": "landuse", "name": "HMAS Coonawarra", "om_id": 287026610}}, {"geometry": {"type": "Point", "coordinates": [145.34, -37.923]}, "type": "Feature", "properties": {"sentences": ["Belgrave Heights is a town in Melbourne, Victoria, Australia, 38 km south-east from Melbourne's central business district.", "Its local government area is the Shire of Yarra Ranges."], "type": "place", "name": "Belgrave Heights", "om_id": 2597859147}}, {"geometry": {"type": "Point", "coordinates": [144.928776, -37.7894295]}, "type": "Feature", "properties": {"sentences": ["== See also == List of Town Halls in Melbourne City of Melbourne   == References =="], "type": "building amenity", "name": "Kensington Town Hall", "om_id": 92372302}}, {"geometry": {"type": "Point", "coordinates": [145.129, -37.747]}, "type": "Feature", "properties": {"sentences": ["Westerfolds Park is a metropolitan park situated in Templestowe, an eastern suburb of Melbourne, Victoria, Australia."], "type": "public_transport highway", "name": "Westerfolds Park", "om_id": 2823871203}}, {"geometry": {"type": "Point", "coordinates": [145.1445, -37.7187]}, "type": "Feature", "properties": {"sentences": ["Alistair Knox Park is a park in Eltham, Melbourne, Victoria, Australia, named after Alistair Knox, a local famous architect who specialized in mud brick.", "The park is located on Main Road near the central Eltham shopping strip."], "type": "highway", "name": "Alistair Knox Park", "om_id": 2823871205}}, {"geometry": {"type": "Point", "coordinates": [146.57694444, -38.25444444]}, "type": "Feature", "properties": {"type": "landuse power", "name": "Loy Yang B Power Station", "om_id": 418338492}}, {"geometry": {"type": "Point", "coordinates": [151.33416667, -33.63083333]}, "type": "Feature", "properties": {"sentences": ["Barrenjoey High School is a co-educational high school located in the Sydney suburb of Avalon, in the Northern Beaches of Sydney, Australia."], "type": "amenity", "name": "Barrenjoey High School", "om_id": 16188585}}, {"geometry": {"type": "Point", "coordinates": [151.009526, -34.036311]}, "type": "Feature", "properties": {"sentences": ["=== Facilities === The school has an abundance of facilities on its campus."], "type": "amenity", "name": "Sutherland Shire Christian School", "om_id": 104650480}}, {"geometry": {"type": "Point", "coordinates": [149.28555556, -20.7875]}, "type": "Feature", "properties": {"sentences": ["Brampton Islands is a national park in Queensland, Australia, 834 kilometres (518 mi) northwest of Brisbane."], "type": "leisure boundary", "name": "Brampton Islands National Park", "om_id": 104628644}}, {"geometry": {"type": "Point", "coordinates": [144.77805556, -36.31388889]}, "type": "Feature", "properties": {"sentences": ["Nanneella is a locality in the Goulburn Valley region of Victoria, Australia.", "The locality is in the Shire of Campaspe, 194 kilometres (121 mi) north of the state capital, Melbourne."], "type": "place", "name": "Nanneella", "om_id": 4370873396}}, {"geometry": {"type": "Point", "coordinates": [130.92363889, -12.45716667]}, "type": "Feature", "properties": {"sentences": ["Berrimah Road is a major arterial road in the outer eastern suburbs of Darwin, Northern Territory Australia."], "type": "highway", "name": "Berrimah Road", "om_id": 364730418}}, {"geometry": {"type": "Point", "coordinates": [152.6872, -25.5445]}, "type": "Feature", "properties": {"sentences": ["Lamington Bridge is a heritage-listed road bridge over the Mary River from Gympie Road, Tinana to Ferry Street, Maryborough, both in the Fraser Coast Region, Queensland, Australia.", "The first bridge over the Mary River was a timber high-set bridge constructed in 1874, upstream from the current bridge.", "Baron Lamington KCMG, Governor of Queensland.", "== Description ==  Lamington Bridge is a low level bridge, designed for inundation, and crosses the Mary River immediately south of the city of Maryborough between Ferry Street in Maryborough and Gympie Road in Tinana.", "== Heritage listing == The Lamington Bridge was listed on the former Register of the National Estate in 1986."], "type": "highway", "name": "Lamington Bridge", "om_id": 8598905}}, {"geometry": {"type": "Point", "coordinates": [144.30388889, -38.18944444]}, "type": "Feature", "properties": {"type": "amenity", "name": "Marcus Oldham College", "om_id": 376167230}}, {"geometry": {"type": "Point", "coordinates": [144.9889, -37.8678]}, "type": "Feature", "properties": {"sentences": ["This plan did not come to fruition and instead by 1863 a book collection was housed in the old Town Hall located at the junction of Barkly and Acland Streets in St Kilda and then in 1910 in the current Town Hall in Carlisle Street.", "Wedged between the busy public Carlisle Street to the South and the residential Duke Street in the North the building takes up nearly 50 square metres."], "type": "amenity", "name": "St Kilda Library", "om_id": 1306421199}}, {"geometry": {"type": "Point", "coordinates": [150.22561111, -34.64211111]}, "type": "Feature", "properties": {"sentences": ["Stingray Swamp Flora Reserve (SWFR) is located immediately north of Penrose township in the south-western region of Wingecarribee Shire."], "type": "leisure", "name": "Stingray Swamp Flora Reserve", "om_id": 4052381603}}, {"geometry": {"type": "Point", "coordinates": [152.9191, -27.5237]}, "type": "Feature", "properties": {"sentences": ["Brisbane Independent School (BIS) is located in semi-rural Pullenvale in the western suburbs of Brisbane, Queensland, Australia."], "type": "amenity", "name": "Brisbane Independent School", "om_id": 386281308}}, {"geometry": {"type": "Point", "coordinates": [151.03049983, -33.835]}, "type": "Feature", "properties": {"sentences": ["A'Becketts Creek is a perennial stream and a northern tributary of the Duck River and part of the Parramatta River catchment, in Sydney, New South Wales, Australia.", "== Geography == A'Becketts Creek is about 3.5 kilometres (2.2 mi) long.", "It flows generally east northeast, then east, joining with Duck Creek at Clyde.", "to flow into the Duck River at Rosehill.", "A'Becketts Creek forms part of the boundary of the suburbs of Harris Park to the north, and the suburbs of Granville and Clyde to the south.", "Sydney, Australia: Sydney Water Board."], "type": "waterway", "name": "A'Becketts Creek", "om_id": 373863991}}, {"geometry": {"type": "Point", "coordinates": [140.41666667, -37.91833333]}, "type": "Feature", "properties": {"sentences": ["Carpenter Rocks Conservation Park is a protected area located in the Limestone Coast of South Australia about 40 kilometres (25 mi) south-west of Mount Gambier and about 1.5 kilometres (0.93 mi) south east of the township of Carpenter Rocks.", "arcana), which is a newly-described species, along with several other plants of national, state or regional significance."], "type": "boundary leisure", "name": "Carpenter Rocks Conservation Park", "om_id": 54820195}}, {"geometry": {"type": "Point", "coordinates": [146.0055, -41.296]}, "type": "Feature", "properties": {"sentences": ["Gunns Plains Cave is a limestone show cave, near Gunns Plains in the North West of Tasmania, twenty kilometres from Ulverstone."], "type": "natural", "name": "Gunns Plains Caves", "om_id": 2774511171}}, {"geometry": {"type": "Point", "coordinates": [153.105, -26.407]}, "type": "Feature", "properties": {"sentences": ["Sunshine Beach is a suburb in Noosa, Queensland, Australia.", "within the local government area of Shire of Noosa (between 2008 and 2013 it was within Sunshine Coast Region)."], "type": "place", "name": "Sunshine Beach", "om_id": 2968379126}}, {"geometry": {"type": "Point", "coordinates": [153.09555556, -26.48055556]}, "type": "Feature", "properties": {"sentences": ["Peregian Beach is a beach and small seaside town on the Sunshine Coast, Queensland, Australia.", "== Geography == Peregian Beach within the Sunshine Coast Region comprises continual residential development along the eastern coastal strip of sandy beaches."], "type": "place", "name": "Peregian Beach", "om_id": 2968379124}}, {"geometry": {"type": "Point", "coordinates": [138.634, -34.899]}, "type": "Feature", "properties": {"sentences": ["Royston Park is a suburb of Adelaide in the City of Norwood Payneham St Peters."], "type": "boundary", "name": "Royston Park", "om_id": 247967617}}, {"geometry": {"type": "Point", "coordinates": [151.54216111, -33.21178056]}, "type": "Feature", "properties": {"type": "building", "name": "Munmorah Power Station", "om_id": 24024036}}, {"geometry": {"type": "Point", "coordinates": [145.16555556, -38.15333333]}, "type": "Feature", "properties": {"sentences": ["Karingal Hub Shopping Centre and Star Zone Karingal are each part of a regional shopping centre complex located in Frankston, Victoria, Australia, approximately 40 kilometres (25 mi) south of Melbourne's central business district."], "type": "shop landuse", "name": "Karingal Hub", "om_id": 32356134}}, {"geometry": {"type": "Point", "coordinates": [152.7364, -31.6389]}, "type": "Feature", "properties": {"sentences": ["Camden Haven High School is a rural school in New South Wales, Australia.", "The school is located about 2 km off the Pacific Highway near the village of Kew."], "type": "amenity", "name": "Camden Haven High School", "om_id": 3523581873}}, {"geometry": {"type": "Point", "coordinates": [151.20333333, -33.83027778]}, "type": "Feature", "properties": {"type": "amenity", "name": "Cammeraygal High School", "om_id": 38507407}}, {"geometry": {"type": "Point", "coordinates": [137.64027778, -35.16611111]}, "type": "Feature", "properties": {"sentences": ["Troubridge Hill is a hill on the south coast of Yorke Peninsula in South Australia located in the locality of Honiton about 13.5 kilometres (8.4 mi) south west of Edithburgh and about 3.8 kilometres (2.4 mi) west of Troubridge Point."], "type": "natural", "name": "Troubridge Hill", "om_id": 3008903647}}, {"geometry": {"type": "Point", "coordinates": [147.364039, -35.067448]}, "type": "Feature", "properties": {"type": "amenity", "name": "The Riverina Anglican College", "om_id": 369524898}}, {"geometry": {"type": "Point", "coordinates": [152.39666667, -24.75444444]}, "type": "Feature", "properties": {"sentences": ["The river flows into the Coral Sea at Burnett Heads, roughly 20 kilometres (12 mi) from Bundaberg.", "The river is part of the Brigalow Belt and South East Queensland bioregions."], "type": "waterway", "name": "Burnett River", "om_id": 362359928}}, {"geometry": {"type": "Point", "coordinates": [115.51194444, -33.55194444]}, "type": "Feature", "properties": {"sentences": ["Tuart Forest National Park is a national park in the South West region of Western Australia (Australia), 183 kilometres (114 mi) south of Perth."], "type": "landuse", "name": "Tuart Forest", "om_id": 221718051}}, {"geometry": {"type": "Point", "coordinates": [144.9803925, -37.8125641]}, "type": "Feature", "properties": {"sentences": ["The Fitzroy Gardens are 26 hectares (64 acres) located on the southeastern edge of the Melbourne Central Business District in East Melbourne, Victoria, Australia.", "The land was originally swampy with a creek draining into the Yarra River."], "type": "leisure", "name": "Fitzroy Gardens", "om_id": 4817020}}, {"geometry": {"type": "Point", "coordinates": [138.65, -34.95]}, "type": "Feature", "properties": {"sentences": ["Mount Osmond is a small suburb of 2,497 people in the South Australian capital city of Adelaide.", "It is part of the City of Burnside local government area and located in the foothills of the Adelaide Hills, five kilometres south east of the city centre.", "The suburb is high on the hill of the same name, which is the last hill on the right when approaching Adelaide down the South Eastern Freeway before the road levels out onto the Adelaide Plains.", "It is bounded to the north by the suburb of Beaumont, to the north-east by Burnside, to the east by Waterfall Gully, to the south by Leawood Gardens/Eagle On The Hill, to the south-west by Urrbrae, to the west by Glen Osmond and to the north-west by St Georges.", "It wound around the hills from where it began as an offshoot of Mount Barker Road in the South.", "Mount Osmond Road remains one of two sealed roads which can today access Mount Osmond and is located to the south of the suburb.", "It begins as the first interchange on the South Eastern Freeway (formerly Mount Barker Road) and then winds around the Mount to the top of the mount and around the golf course.", "Stops can be found in neighbouring suburbs.", "Mount Osmond Golf Course is located on the very top of the suburb, and includes its peak.", "The Suburb also has a small bed and breakfast, located at the northern end of Mount Osmond Road."], "type": "boundary", "name": "Mount Osmond", "om_id": 246453569}}, {"geometry": {"type": "Point", "coordinates": [143.823, -37.532]}, "type": "Feature", "properties": {"sentences": ["Wendouree is a large suburb on the north western rural-urban fringe of the city of Ballarat, in Victoria, Australia.", "It incorporates the unofficial locality of Wendouree West.", "Ballarat Secondary College (Wendouree Campus) is located at the corner of Forest Street and Giot Drive, at the northern end of the suburb.", "Wendouree Primary School (PS 1813) is located on Howitt Street opposite the Howitt Street shopping centre.", "Forest Street Primary School (PS 4936) is located at the northern end of Forest Street near the secondary college.", "Wendouree West Primary was renamed Grevillea Park in the early 1990s.", "The Wendouree Central Bowling Club is located across the railway line in the suburb of Lake Wendouree.", "It is now officially considered part of the suburb of Wendouree."], "type": "shop landuse", "name": "Stockland Wendouree", "om_id": 48842226}}, {"geometry": {"type": "Point", "coordinates": [152.85416667, -26.32]}, "type": "Feature", "properties": {"sentences": ["Mount Pinbarren is a national park in Queensland, Australia, 129 km north of Brisbane.", "It is located in the Pinbarren, a locality in the Shire of Noosa.", "Mount Pinbarren lies within the South East Queensland bioregion and the Mary River catchment area.", "== See also ==  Noosa Biosphere Reserve Protected areas of Queensland   == References =="], "type": "leisure boundary", "name": "Mount Pinbarren National Park", "om_id": 104778083}}, {"geometry": {"type": "Point", "coordinates": [153.45722222, -28.09527778]}, "type": "Feature", "properties": {"sentences": ["Burleigh Head is a small national park at Burleigh Heads on the Gold Coast in South East Queensland, Australia, 81 kilometres (50 mi) southeast of Brisbane.", "Tallebudgera Creek enters the ocean directly south of the park.", "Upstream tidal Tallebudgera Creek has a mangrove environment."], "type": "leisure boundary", "name": "Burleigh Head National Park", "om_id": 104759342}}, {"geometry": {"type": "Point", "coordinates": [145.23083333, -37.85638889]}, "type": "Feature", "properties": {"sentences": ["Wantirna College is a state-government secondary school in Wantirna, Victoria, Australia."], "type": "amenity", "name": "Wantirna College", "om_id": 76167858}}, {"geometry": {"type": "Point", "coordinates": [145.73741111, -17.00485]}, "type": "Feature", "properties": {"sentences": ["Fretwell Park is a cricket ground in Cairns, Queensland, Australia."], "type": "leisure", "name": "Fretwell Park", "om_id": 385353624}}, {"geometry": {"type": "Point", "coordinates": [138.594, -34.93045]}, "type": "Feature", "properties": {"sentences": ["Gouger Street is a main street in the CBD of the centre of Adelaide, South Australia.", "It was named after Robert Gouger, first Colonial Secretary of South Australia.", "The southern entrance of the Adelaide Central Market can also be found on Gouger street."], "type": "highway", "name": "Gouger Street", "om_id": 16355456}}, {"geometry": {"type": "Point", "coordinates": [138.696, -34.914]}, "type": "Feature", "properties": {"sentences": ["Teringie is a suburb of Adelaide in South Australia."], "type": "boundary", "name": "Teringie", "om_id": 247968589}}, {"geometry": {"type": "Point", "coordinates": [144.555, -37.675]}, "type": "Feature", "properties": {"sentences": ["Melton West is a suburb of Melbourne, Victoria, Australia, 40 km west of Melbourne's Central Business District."], "type": "place", "name": "Melton West", "om_id": 2578702064}}, {"geometry": {"type": "Point", "coordinates": [151.21182, -33.87099]}, "type": "Feature", "properties": {"sentences": ["The Archibald Fountain, properly called the J. F. Archibald Memorial Fountain is located in Hyde Park, in central Sydney, New South Wales."], "type": "amenity", "name": "Archibald Fountain", "om_id": 50540207}}, {"geometry": {"type": "Point", "coordinates": [153.58498333, -28.6706]}, "type": "Feature", "properties": {"sentences": ["The Hayters Hill Nature Reserve is a protected nature reserve that is located in the Northern Rivers region in the state of New South Wales, in eastern Australia."], "type": "natural", "name": "Hayters Hill Nature Reserve", "om_id": 3983555923}}, {"geometry": {"type": "Point", "coordinates": [149.38805556, -33.99388889]}, "type": "Feature", "properties": {"sentences": ["== Course and features == Formed by the confluence of two unnamed watercourses, the Cooks Vale Creek (technically a river) rises southwest of Hadley, on the south western slopes of the Great Dividing Range, and flows generally northwest by north before re", "== See also ==  List of rivers of New South Wales (A-K) Rivers of New South Wales   == References ==   == External links == \"Lachlan River catchment\" (map)."], "type": "waterway", "name": "Cooks Vale Creek", "om_id": 250943423}}, {"geometry": {"type": "Point", "coordinates": [141.017, -34.1]}, "type": "Feature", "properties": {"sentences": ["Lindsay Point is a locality in northwestern Victoria, Australia, located approximately 130 km from Mildura."], "type": "place", "name": "Lindsay Point", "om_id": 3333538316}}, {"geometry": {"type": "Point", "coordinates": [115.757237, -32.05229]}, "type": "Feature", "properties": {"sentences": ["== Location == The War Memorial is located on Monument Hill in the suburb of Fremantle, approximately 43 metres (141 ft) above sea level.", "The hill overlooks Fremantle Harbour, Garden Island, and Rottnest Island to the west, and the Darling Ranges to the east, and is the highest natural point of elevation between the Indian Ocean and the Darling Ranges."], "type": "leisure", "name": "Fremantle War Memorial", "om_id": 376035154}}, {"geometry": {"type": "Point", "coordinates": [152.976964, -27.475732]}, "type": "Feature", "properties": {"sentences": ["The Planetarium is located about 5 kilometres (3.1 mi) from the Central Business District, and is administered by the Brisbane City Council."], "type": "building amenity tourism", "name": "Sir Thomas Brisbane Planetarium", "om_id": 37025041}}, {"geometry": {"type": "Point", "coordinates": [149.912, -36.8862]}, "type": "Feature", "properties": {"sentences": ["The Old School Museum is a local-history museum in Merimbula, New South Wales, Australia, occupying the town's former schoolhouse."], "type": "tourism", "name": "Old School Museum", "om_id": 4356677697}}, {"geometry": {"type": "Point", "coordinates": [153.42944444, -28.00611111]}, "type": "Feature", "properties": {"sentences": ["It towers 230 metres above the Surfers Paradise beach, giving viewers a 360 degree view of Brisbane to the north, the Gold Coast Hinterland to the west, Byron Bay, New South Wales, to the south and the Pacific Ocean to the east."], "type": "building", "name": "Q1 Tower", "om_id": 188325694}}, {"geometry": {"type": "Point", "coordinates": [152.93333333, -27.5]}, "type": "Feature", "properties": {"sentences": ["Kenmore Hills is a suburb of the City of Brisbane, Queensland, Australia approximately 10 kilometres (6.2 mi) south-west of the CBD."], "type": "place", "name": "Kenmore Hills", "om_id": 4388491980}}, {"geometry": {"type": "Point", "coordinates": [144.9512, -37.8285]}, "type": "Feature", "properties": {"sentences": ["Southbank tram depot is located in Southbank, a suburb of Melbourne in Victoria, Australia."], "type": "landuse", "name": "Southbank Tram Depot", "om_id": 36925344}}, {"geometry": {"type": "Point", "coordinates": [146.17111111, -18.16694444]}, "type": "Feature", "properties": {"sentences": ["Goold Island is a national park in Queensland, Australia, 1,250 km (780 mi) northwest of Brisbane.", "The island is close to the northern tip of Hinchinbrook Island off the coast from Cardwell in Rockingham Bay and is part of the Great Barrier Reef World Heritage Area.", "Covering 8.3 km2 (3.2 square miles) the island is located 17 km (10.6 mi) from shore.", "The beach stone-curlew also makes North Brook Island its home."], "type": "leisure boundary", "name": "Goold Island National Park", "om_id": 104446461}}, {"geometry": {"type": "Point", "coordinates": [149.11055556, -20.58916667]}, "type": "Feature", "properties": {"sentences": ["Smith Islands is a national park in North Queensland, Australia, 862 km northwest of Brisbane.", "Smith Island is a southern island in the Family Islands group and located approximately 20 km East of Tully Heads.", "== See also ==  Protected areas of Queensland"], "type": "natural leisure boundary", "name": "Smith Islands National Park", "om_id": 104628499}}, {"geometry": {"type": "Point", "coordinates": [146.28222222, -18.14138889]}, "type": "Feature", "properties": {"sentences": ["The Brook Islands National Park is a national park in Queensland, Australia, 1246 km northwest of Brisbane, with an area of 0.9 km2.", "It was established in 1994 and comprises three islands - North, Tween and Middle - which lie off the coast 7 km north-east of Cape Richards on Hinchinbrook Island and 30 km east of the nearest mainland town of Cardwell.", "Beach stone-curlews breed on North Island beaches.", "== See also ==  Protected areas of Queensland   == References ==   == External links == Brook Islands National Park"], "type": "leisure boundary", "name": "Brook Islands National Park", "om_id": 104446463}}, {"geometry": {"type": "Point", "coordinates": [148.89944444, -20.85166667]}, "type": "Feature", "properties": {"sentences": ["Newry Islands is a national park in North Queensland, Australia, 847 km northwest of Brisbane.", "== See also ==  Protected areas of Queensland"], "type": "leisure boundary", "name": "Newry Islands National Park", "om_id": 105106804}}, {"geometry": {"type": "Point", "coordinates": [148.41666667, -37.08333333]}, "type": "Feature", "properties": {"sentences": ["The Deddick River is a perennial river of the Snowy River catchment, located in the Alpine region of the Australian state of Victoria.", "== Course and features == The Deddick River rises below Mount Little Bill in a remote alpine wilderness area within the Snowy River National Park, and flows generally north leaving the national park, then northwest through the locality of Tubbut, and then", "The river is joined by the Bonang River and sixteen minor tributaries, before reaching its confluence with the Snowy River in the Snowy River National Park below Mount Bulla Bulla, a few hundred metres north of the McKillops Bridge in the Shire of East Gippsland.", "Parks Victoria.", "Government of Victoria.", "Government of Victoria."], "type": "waterway", "name": "Deddick River", "om_id": 191327491}}, {"geometry": {"type": "Point", "coordinates": [144.11666667, -37.43333333]}, "type": "Feature", "properties": {"sentences": ["Leonards Hill is a village located in the Shire of Hepburn, Victoria, Australia."], "type": "natural", "name": "Leonards Hill", "om_id": 3008339066}}, {"geometry": {"type": "Point", "coordinates": [145.198, -37.838]}, "type": "Feature", "properties": {"sentences": ["Vermont is a suburb of Melbourne, Victoria, Australia, 21 km (13 mi) east of Melbourne's Central Business District.", "Vermont is bordered by Mitcham to the north, Nunawading and Forest Hill to the west, Vermont South to the south and Wantirna and Ringwood to the east.", "== Transport == The nearest railway station is Mitcham railway station, located 2 km (1.2 mi) north of Vermont and Heatherdale Station, which is located 1.4 km north of Vermont (from Canterbury Road).", "One of Melbourne's major arterials, Canterbury Road, passes through the centre of Vermont, running east to west."], "type": "amenity", "name": "Vermont Primary School", "om_id": 140447722}}, {"geometry": {"type": "Point", "coordinates": [128.115, -30.83833333]}, "type": "Feature", "properties": {"sentences": ["Forrest Airport (IATA: FOS, ICAO: YFRT) is an airport located in the tiny hamlet of Forrest, Western Australia."], "type": "aeroway", "name": "Forrest Airport", "om_id": 333530262}}, {"geometry": {"type": "Point", "coordinates": [151.0804902, -33.8363379]}, "type": "Feature", "properties": {"type": "historic", "name": "HMAS Karangi", "om_id": 284927123}}, {"geometry": {"type": "Point", "coordinates": [115.75382, -32.047634]}, "type": "Feature", "properties": {"sentences": ["Fremantle Arts Centre is a multi-arts organisation, offering a program of exhibitions, residencies, art courses and music in a historic building in the heart of Fremantle, Western Australia."], "type": "tourism", "name": "Fremantle Arts Centre", "om_id": 2569153520}}, {"geometry": {"type": "Point", "coordinates": [115.7514, -32.0582]}, "type": "Feature", "properties": {"sentences": ["Fremantle Hospital is a public hospital situated on South Terrace in central Fremantle, Western Australia, south-west of Perth.", "The western side is bounded by South Terrace, while Hampton Road is on its eastern side The hospital is also within walking distance of the Fremantle Markets, and Fremantle Oval."], "type": "tourism", "name": "Fremantle Hospital", "om_id": 2569153524}}, {"geometry": {"type": "Point", "coordinates": [153.16027778, -28.92416667]}, "type": "Feature", "properties": {"sentences": ["The Shannon Brook, a perennial stream of the Richmond River catchment, is located in Northern Rivers region in the state of New South Wales, Australia.", "== Location and features == Formed by the confluence of the Theresa Creek and Deep Creek, Shannon Brook rises on the Richmond Range about 8 kilometres (5.0 mi) southwest of Mummulgum.", "The river flows generally northeast, east southeast and east, joined by two minor tributaries before reaching its confluence with the Richmond River near Tatham, about 13 kilometres (8.1 mi) southeast of Casino.", "== See also ==  Rivers of New South Wales List of rivers of New South Wales (L-Z) List of rivers of Australia   == References ==   == External links == \"Richmond River catchment\" (map)."], "type": "waterway", "name": "Shannon Brook", "om_id": 147222642}}, {"geometry": {"type": "Point", "coordinates": [149.098098, -35.305092]}, "type": "Feature", "properties": {"sentences": ["Yarralumla is a large inner south suburb of Canberra, the capital city of Australia.", "Located approximately 3.5 kilometres (2.2 mi) south-west of the city, Yarralumla extends along the south-west bank of Lake Burley Griffin.", "== Geography == Yarralumla is located in the central Canberra district of South Canberra.", "It is bordered by Lake Burley Griffin to the north, Commonwealth Avenue and Capital Hill to the east, Adelaide Avenue and the Cotter Road to the south, and Scrivener Dam, Lady Denman Drive and part of the Molonglo River to the west.", "Most of the older streets in the suburb are laid out on an approximately rectangular grid with some curved sections, while the more hilly eastern end of the suburb, including the embassy district, is set out with contour-guided roads.", "The formation extends from Red Hill and Woden in the South to Lake Burley Griffin in to the north, passing under the suburb of Yarralumla.", "An area to the west of what is now the suburb was the Yarrolumla parish.", "Other camps were established at the eastern end of Stirling Park on the hills opposite modern Lotus Bay.", "== Suburb amenities ==  The Yarralumla local shopping centre is located on the corner of Bentham and Novar Streets.", "Weston Park is situated on a peninsula near the western end of Lake Burley Griffin.", "The Governor-General's residence Government House, which shares the name Yarralumla, is located at the western end of the suburb in 53 hectares (130 acres) of parkland.", "Also located alongside Scrivener Dam is the National Zoo & Aquarium.", "North Ryde, New South Wales: Universal Publishers."], "type": "amenity", "name": "Yarralumla Primary School", "om_id": 233859677}}, {"geometry": {"type": "Point", "coordinates": [115.8599, -31.9585]}, "type": "Feature", "properties": {"sentences": ["Supreme Court Gardens is a park in the central business district of Perth, Western Australia, bounded by Riverside Drive, Barrack Street, Governors Avenue, and the buildings of the Supreme Court of Western Australia."], "type": "leisure", "name": "Supreme Court Gardens", "om_id": 4957439}}, {"geometry": {"type": "Point", "coordinates": [151.15055556, -33.87194444]}, "type": "Feature", "properties": {"sentences": ["The ferry wharf was on the eastern side of the canal aligned with Barton St, and a footbridge was built from the western side."], "type": "waterway", "name": "Hawthorne Canal", "om_id": 177122717}}, {"geometry": {"type": "Point", "coordinates": [138.6372, -34.9896]}, "type": "Feature", "properties": {"sentences": ["Brownhill Creek Recreation Park is a protected area located about 8 kilometres (5.0 mi) south of the Adelaide city centre in City of Mitcham along part of the course of the Brown Hill Creek."], "type": "boundary leisure", "name": "Brownhill Creek Recreation Park", "om_id": 56255416}}, {"geometry": {"type": "Point", "coordinates": [144.8491, -37.7862]}, "type": "Feature", "properties": {"type": "amenity", "name": "Caroline Chisholm Catholic College", "om_id": 41453985}}, {"geometry": {"type": "Point", "coordinates": [150.97722222, -32.37194444]}, "type": "Feature", "properties": {"sentences": ["Commissioned between 1971 and 1973, the station is located at Lake Liddell near Muswellbrook, in the Hunter Region, New South Wales, Australia."], "type": "power landuse", "name": "Liddell Power Station", "om_id": 171863885}}, {"geometry": {"type": "Point", "coordinates": [145.151, -37.826]}, "type": "Feature", "properties": {"sentences": ["Blackburn is a suburb of Melbourne, Victoria, Australia, 17 kilometres (11 mi) east of Melbourne's Central Business District.", "Its local government area is the City of Whitehorse.", "It lies within the City of Whitehorse, in Melbourne's eastern suburbs.", "Blackburn is bounded in the west by Middleborough Road, in the north by Springfield Road, in the east by an irregular line along streets to the east of Blackburn Lake Sanctuary and in the south by Canterbury Road.", "A large part of Blackburn is of historical significance, as it was built around the artificial Blackburn Lake in 1889, now known as Blackburn Lake Sanctuary, with the lake in the middle of the sanctuary."], "type": "amenity", "name": "St Thomas the Apostle Primary School", "om_id": 21901195}}, {"geometry": {"type": "Point", "coordinates": [149.136781, -35.300399]}, "type": "Feature", "properties": {"sentences": ["In 1971, the Government selected a 17-hectare (42-acre) site on the eastern side of the proposed National Place, between King Edward Terrace and for the Gallery.", "He was formerly Director of the Art Gallery of South Australia."], "type": "tourism amenity", "name": "National Gallery of Australia", "om_id": 208351859}}, {"geometry": {"type": "Point", "coordinates": [144.952, -37.825]}, "type": "Feature", "properties": {"sentences": ["South Wharf is an inner suburb of Melbourne, Victoria, Australia, 2 km south-west of Melbourne's Central Business District.", "Its local government areas are the Cities of Melbourne and Port Phillip."], "type": "place", "name": "South Wharf", "om_id": 2090531063}}, {"geometry": {"type": "Point", "coordinates": [144.99, -37.78111111]}, "type": "Feature", "properties": {"type": "leisure", "name": "Rushall Garden", "om_id": 54454055}}, {"geometry": {"type": "Point", "coordinates": [153.3, -27.81666667]}, "type": "Feature", "properties": {"sentences": ["It is located on the Pacific Motorway 30 kilometres (19 mi) north of Surfers Paradise.", "The township of Pimpama is the last remaining rural town on the Pacific Motorway between Brisbane and the Gold Coast.", "A railway station was located on the old South Coast railway line, which ran from Brisbane to Coolangatta.", "Hotham Creek also flows through the suburb and meets with Pimpama River to the north-east of the suburb.", "The Charrette zone straddled the Pacific Highway, with its northern boundary on Hotham Creek and southern boundary on the Coomera river.", "The suburb is serviced by Queensland Rail City network through Ormeau railway station, also located in Canowindra and is bisected by the M1 Motorway.", "== See also ==  List of Gold Coast suburbs   == References ==   == External links == University of Queensland: Queensland Places:Pimpama Pimpama.com - Pimpama information"], "type": "boundary", "name": "Pimpama", "om_id": 423722628}}, {"geometry": {"type": "Point", "coordinates": [130.89140833, -12.43250833]}, "type": "Feature", "properties": {"sentences": ["Tiger Brennan Drive is a major arterial road in the eastern suburbs of Darwin, Northern Territory, Australia.", "The road provides the primary access to Charles Darwin National Park."], "type": "highway", "name": "Tiger Brennan Drive", "om_id": 282681706}}, {"geometry": {"type": "Point", "coordinates": [152.9077, -27.5918]}, "type": "Feature", "properties": {"sentences": ["The Park Centre for Mental Health is a heritage-listed psychiatric hospital located in Wacol in Queensland and is one of the largest psychiatric hospitals in Australia."], "type": "amenity emergency", "name": "The Park Centre for Mental Health", "om_id": 312572527}}, {"geometry": {"type": "Point", "coordinates": [144.968714, -37.817798]}, "type": "Feature", "properties": {"sentences": ["Built on a concrete deck above busy railway lines, it is located at the intersection of Flinders Street and Swanston Street/St Kilda Road in the city's Central Business District, adjacent to Flinders Street railway station.", "== Location and layout == Federation Square occupies roughly a whole urban block bounded by Swanston, Flinders, and Russell Streets and the Yarra River.", "\"Melbourne gets square\"."], "type": "place highway", "name": "Federation Square", "om_id": 22963283}}, {"geometry": {"type": "Point", "coordinates": [153.020981, -27.497781]}, "type": "Feature", "properties": {"type": "highway", "name": "Eleanor Schonell Bridge", "om_id": 141323368}}, {"geometry": {"type": "Point", "coordinates": [147.068047, -38.109231]}, "type": "Feature", "properties": {"type": "amenity", "name": "Sale College", "om_id": 215521915}}, {"geometry": {"type": "Point", "coordinates": [144.9056, -37.8615]}, "type": "Feature", "properties": {"sentences": ["Gem Pier is an historic pier on Port Phillip Bay, in Williamstown, Victoria, Australia."], "type": "man_made", "name": "Gem Pier", "om_id": 44644863}}, {"geometry": {"type": "Point", "coordinates": [115.74361111, -32.05666667]}, "type": "Feature", "properties": {"sentences": ["The University of Notre Dame Australia is an Australian private Catholic university established in 1989."], "type": "tourism", "name": "University of Notre Dame Australia", "om_id": 2891147743}}, {"geometry": {"type": "Point", "coordinates": [149.151, -35.3155]}, "type": "Feature", "properties": {"type": "place", "name": "South Canberra", "om_id": 4583652168}}, {"geometry": {"type": "Point", "coordinates": [130.83638889, -12.425]}, "type": "Feature", "properties": {"sentences": ["Fannie Bay is a middle/inner suburb of the city of Darwin, Northern Territory, Australia.", "Situated in the suburb is the Fannie Bay Gaol museum, Fannie Bay Race Track and a monument to Ross Smith, captain of the Vickers Vimy, that on 10 December 1919, was the first aircraft to fly from England to Australia in less than 30 days."], "type": "natural", "name": "Fannie Bay", "om_id": 3020492140}}, {"geometry": {"type": "Point", "coordinates": [152.16666667, -32.75]}, "type": "Feature", "properties": {"sentences": ["Fingal Bay is the eastern-most suburb of the Port Stephens local government area in the Hunter Region of New South Wales, Australia."], "type": "natural", "name": "Fingal Bay", "om_id": 3020492143}}, {"geometry": {"type": "Point", "coordinates": [148.49444444, -36.4125]}, "type": "Feature", "properties": {"sentences": ["The Thredbo River, a perennial river of the Snowy River catchment, is located in the Snowy Mountains region of New South Wales, Australia.", "== Course and features == The Thredbo River rises below South Rams Head, near Mount Leo within the Kosciuszko National Park.", "The river flows generally adjacent to the Alpine Way, west and northwest near Dead Horse Gap, then generally north, passing through the village of Thredbo, joined by four tributaries including the Little Thredbo River, before emptying into Lake Jindabyne, impounded by Jindabyne Dam.", "The river descends 649 metres (2,129 ft) over its 40 kilometres (25 mi) course."], "type": "waterway", "name": "Thredbo River", "om_id": 7693200}}, {"geometry": {"type": "Point", "coordinates": [-3.20666111, 55.96560278]}, "type": "Feature", "properties": {"sentences": ["The North Coast Regional Botanic Garden is a 20 hectare garden located at the corner of Coffs and Hardacre Streets, a kilometre from the centre of Coffs Harbour in the Mid North Coast region of New South Wales, Australia."], "type": "tourism", "name": "North Coast Regional Botanic Garden Information", "om_id": 4350422834}}, {"geometry": {"type": "Point", "coordinates": [149.129, -35.2817]}, "type": "Feature", "properties": {"type": "place", "name": "North Canberra", "om_id": 4583652167}}, {"geometry": {"type": "Point", "coordinates": [149.08472222, -35.34527778]}, "type": "Feature", "properties": {"sentences": ["It is in Woden Town Centre, a commercial district of Canberra located in the suburb of Phillip."], "type": "building", "name": "Lovett Tower", "om_id": 56241486}}, {"geometry": {"type": "Point", "coordinates": [153.05915278, -27.57576667]}, "type": "Feature", "properties": {"sentences": ["Sunnybank State High School is a Queensland Government State School located in the suburb of Sunnybank, approximately 15 kilometres south of the city of Brisbane, in Queensland, Australia."], "type": "amenity", "name": "Sunnybank State High School", "om_id": 32227298}}, {"geometry": {"type": "Point", "coordinates": [144.9682, -37.8192]}, "type": "Feature", "properties": {"sentences": ["Princes Bridge, originally Prince's Bridge, is an important bridge in central Melbourne, Australia that spans the Yarra River.", "Princes Bridge was also the name of a railway station located on the northern side of the river, to the east of the bridge, on the current site of Federation Square."], "type": "railway", "name": "Princes Bridge", "om_id": 4759069}}, {"geometry": {"type": "Point", "coordinates": [130.71444444, -13.20555556]}, "type": "Feature", "properties": {"sentences": ["The Tolmer Falls is a plunge waterfall on the Tolmer Creek that is located in the Litchfield National Park in the Northern Territory of Australia.", "Accessed by sealed road, the falls are near the western boundary of the national park, approximately 85 kilometres (53 mi) south of Darwin."], "type": "waterway", "name": "Tolmer Falls", "om_id": 2619896085}}, {"geometry": {"type": "Point", "coordinates": [144.9538, -37.8122]}, "type": "Feature", "properties": {"sentences": ["Dudley Street is a main street in the Melbourne central business district."], "type": "highway", "name": "Dudley Street", "om_id": 13305896}}, {"geometry": {"type": "Point", "coordinates": [145.98166667, -36.55194444]}, "type": "Feature", "properties": {"sentences": ["Benalla Airport (IATA: BLN, ICAO: YBLA) is located east of Benalla, Victoria, Australia."], "type": "aeroway", "name": "Benalla", "om_id": 292257462}}, {"geometry": {"type": "Point", "coordinates": [152.965, -27.22805556]}, "type": "Feature", "properties": {"type": "highway", "name": "Lakeside Raceway", "om_id": 45165631}}, {"geometry": {"type": "Point", "coordinates": [137.93785, -35.84669]}, "type": "Feature", "properties": {"sentences": ["Willson River is a locality in the Australian state of South Australia located on the Dudley Peninsula on Kangaroo Island overlooking the body of water known in Australia as the Southern Ocean and by international authorities as the Great Australian Bight.", "It is located about 120 kilometres (75 mi) south of the state capital of Adelaide and about 15 kilometres (9.3 mi) south-west of the municipal seat of Penneshaw."], "type": "waterway", "name": "Willson River", "om_id": 317733988}}, {"geometry": {"type": "Point", "coordinates": [145.06194444, -37.70777778]}, "type": "Feature", "properties": {"type": "amenity", "name": "Bundoora Secondary College", "om_id": 49579032}}, {"geometry": {"type": "Point", "coordinates": [152.94010833, -27.53733056]}, "type": "Feature", "properties": {"sentences": ["The suburbs are Jindalee, Mt.", "Jarup Street, on the western side.", "Moolanda Street, on the southern side.", "Yallambee Road, on the eastern side."], "type": "amenity", "name": "Centenary State High School", "om_id": 96173773}}, {"geometry": {"type": "Point", "coordinates": [144.962947, -37.810301]}, "type": "Feature", "properties": {"sentences": ["Coop's Shot Tower is a shot tower located in the heart of the Melbourne CBD, Australia."], "type": "tourism", "name": "Coop's Shot Tower", "om_id": 3207173074}}, {"geometry": {"type": "Point", "coordinates": [151.08333333, -33.86666667]}, "type": "Feature", "properties": {"sentences": ["Strathfield Girls High School is a single-sex comprehensive high school located in the municipality of Strathfield in Sydney, New South Wales, Australia."], "type": "amenity", "name": "Strathfield Girls High School", "om_id": 225353650}}, {"geometry": {"type": "Point", "coordinates": [149.46666667, -34.01666667]}, "type": "Feature", "properties": {"sentences": ["== Course == The river rises to the east of the village of Mount Werong and generally flows westward towards its confluence with the Lachlan River at Wyangala Dam near Cowra."], "type": "waterway", "name": "Abercrombie River", "om_id": 214656777}}, {"geometry": {"type": "Point", "coordinates": [152.68333333, -30.18333333]}, "type": "Feature", "properties": {"sentences": ["Blicks River, a perennial stream that is part of the Clarence River catchment, is located in the Northern Tablelands district of New South Wales, Australia.", "The river flows generally north, east by north, and then east, reaching its confluence with the Nymboida River, north of Dorrigo."], "type": "waterway", "name": "Blicks River", "om_id": 171381465}}, {"geometry": {"type": "Point", "coordinates": [138.535, -34.881]}, "type": "Feature", "properties": {"sentences": ["Woodville South is a suburb of Adelaide, South Australia.", "It lies within the City of Charles Sturt.", "Woodville South is adjacent to the suburbs of Woodville West, Woodville, Woodville Park, Beverley, and Findon."], "type": "boundary", "name": "Woodville South", "om_id": 242779712}}, {"geometry": {"type": "Point", "coordinates": [144.95833333, -37.80888889]}, "type": "Feature", "properties": {"sentences": ["Melbourne Terrace is a set of 60 apartments at the corner of Franklin and Queen Street, Melbourne."], "type": "building", "name": "Melbourne Terrace Apartments", "om_id": 62105905}}, {"geometry": {"type": "Point", "coordinates": [136.83694444, -35.23611111]}, "type": "Feature", "properties": {"sentences": ["Pondalowie Bay is a bay located on the west coast of the south-west tip of Yorke Peninsula in Spencer Gulf in South Australia about 12 kilometres (7.5 mi) west of Marion Bay."], "type": "natural", "name": "Pondalowie Bay", "om_id": 3020493308}}, {"geometry": {"type": "Point", "coordinates": [115.84255, -31.9485]}, "type": "Feature", "properties": {"sentences": ["The Ross Memorial Church is a Uniting Church building on Hay Street in West Perth, Western Australia.", "Monument Australia."], "type": "building amenity", "name": "Ross Memorial Church", "om_id": 44038970}}, {"geometry": {"type": "Point", "coordinates": [148.26777778, -36.04833333]}, "type": "Feature", "properties": {"sentences": ["== Location and features == Completed in 1961, Tooma Dam is a major dam, located near the village of Tooma and approximately 21 kilometres (13 mi) from the town of Khancoban."], "type": "natural", "name": "Tooma Reservoir", "om_id": 16173738}}, {"geometry": {"type": "Point", "coordinates": [138.676, -34.96]}, "type": "Feature", "properties": {"sentences": ["Waterfall Gully is an eastern suburb of the South Australian capital city of Adelaide.", "It is located in the foothills of the Mount Lofty Ranges around 5 km (3.1 mi) east-south-east of the Adelaide city centre.", "Part of the City of Burnside, Waterfall Gully is bounded to the north by the suburb of Burnside, from the north-east to south-east by Cleland Conservation Park (part of the suburb of Cleland), to the south by Crafers West, and to the west by Leawood Gardens and Mount Osmond.", "=== Ethnohistory === In Australian Aboriginal mythology, Waterfall Gully and the surrounding Mount Lofty Ranges are part of the story of the ancestor-creator Nganno.", "The brook was First Creek, and the waterfall they sighted is today known as First Falls.", "Destinations include Crafers, Eagle On The Hill, Mount Lofty, Mount Osmond and the Cleland Wildlife Park, located in the Cleland Conservation Park."], "type": "highway", "name": "Waterfall Gully Road", "om_id": 16940935}}, {"geometry": {"type": "Point", "coordinates": [146.81666667, -19.28333333]}, "type": "Feature", "properties": {"sentences": ["Railway Estate is a suburb in the City of Townsville, Queensland, Australia.", "== Geography == Railway Estate is located on the south end of Ross Island, bounded by Ross Creek to the south-west and Ross River to the south-east."], "type": "place", "name": "Railway Estate", "om_id": 3941123302}}, {"geometry": {"type": "Point", "coordinates": [146.83333333, -19.26666667]}, "type": "Feature", "properties": {"sentences": ["South Townsville is a suburb of the City of Townsville, Queensland, Australia.", "== Geography == South Townsville is located on the northern end of Ross Island, bounded by the Coral Sea to the north, Ross Creek to the west and the Ross River to the east."], "type": "place", "name": "South Townsville", "om_id": 3941123303}}, {"geometry": {"type": "Point", "coordinates": [146.8, -19.28333333]}, "type": "Feature", "properties": {"sentences": ["Hermit Park is a suburb of Townsville, Queensland."], "type": "place", "name": "Hermit Park", "om_id": 3941123301}}, {"geometry": {"type": "Point", "coordinates": [145.01194444, -37.78925]}, "type": "Feature", "properties": {"type": "amenity", "name": "Thomas Embling Hospital", "om_id": 26830083}}, {"geometry": {"type": "Point", "coordinates": [144.34833333, -38.14111111]}, "type": "Feature", "properties": {"sentences": ["Pakington Street is a boutique shopping strip in Geelong, Victoria, Australia."], "type": "highway", "name": "Pakington Street", "om_id": 3130315930}}, {"geometry": {"type": "Point", "coordinates": [141.65833333, -36.33194444]}, "type": "Feature", "properties": {"type": "amenity", "name": "Nhill College", "om_id": 250438906}}, {"geometry": {"type": "Point", "coordinates": [138.685, -34.918]}, "type": "Feature", "properties": {"sentences": ["Auldana is a suburb of Adelaide, South Australia in the City of Burnside."], "type": "boundary", "name": "Auldana", "om_id": 377822774}}, {"geometry": {"type": "Point", "coordinates": [151.1795, -33.5147]}, "type": "Feature", "properties": {"sentences": ["Milson Island is located in New South Wales, Australia.", "Dictionary of Sydney."], "type": "place", "name": "Milson Island", "om_id": 244378121}}, {"geometry": {"type": "Point", "coordinates": [148.25, -40.21666667]}, "type": "Feature", "properties": {"type": "place natural", "name": "Little Green Island", "om_id": 68887547}}, {"geometry": {"type": "Point", "coordinates": [115.992, -31.891]}, "type": "Feature", "properties": {"sentences": ["Woodbridge is a suburb of Perth, Western Australia, located within the City of Swan."], "type": "building historic", "name": "Woodbridge House", "om_id": 132864009}}, {"geometry": {"type": "Point", "coordinates": [147.51166667, -34.42166667]}, "type": "Feature", "properties": {"sentences": ["Temora Airport (IATA: TEM, ICAO: YTEM) is a small airport located 2 nautical miles (3.7 km; 2.3 mi) northwest of Temora, New South Wales, Australia."], "type": "aeroway", "name": "Temora Airport", "om_id": 346678563}}, {"geometry": {"type": "Point", "coordinates": [138.706025, -34.93455833]}, "type": "Feature", "properties": {"sentences": ["Horsnell Gully Conservation Park is a protected area in the Australian state of South Australia located in the Adelaide foothills southwest of Norton Summit."], "type": "boundary", "name": "Horsnell Gully", "om_id": 248966925}}, {"geometry": {"type": "Point", "coordinates": [144.96, -37.8024]}, "type": "Feature", "properties": {"type": "building", "name": "Melbourne Law School", "om_id": 22818860}}, {"geometry": {"type": "Point", "coordinates": [152.9169, -27.6015]}, "type": "Feature", "properties": {"sentences": ["The Gailes Golf Club is a golf club in Wacol, Queensland, Australia, 20 minutes south of Brisbane."], "type": "leisure", "name": "Gailes Golf Club", "om_id": 312525867}}, {"geometry": {"type": "Point", "coordinates": [148.47027778, -36.31944444]}, "type": "Feature", "properties": {"sentences": ["Island Bend Dam is a major ungated concrete gravity dam with a controlled spillway across the Snowy River in the Snowy Mountains region of New South Wales, Australia."], "type": "landuse", "name": "Island Bend Dam", "om_id": 146304655}}, {"geometry": {"type": "Point", "coordinates": [147.97, -40.18]}, "type": "Feature", "properties": {"sentences": ["The Big Green Island, part of the Big Green Group within the Furneaux Group, is a 122-hectare (300-acre) granite island with limestone and dolerite outcrops, located in Bass Strait west of Flinders Island, in Tasmania, in south-eastern Australia.", "Cape Barren geese also breed on the island."], "type": "place natural", "name": "Big Green Island", "om_id": 68881826}}, {"geometry": {"type": "Point", "coordinates": [153.062811, -27.252341]}, "type": "Feature", "properties": {"sentences": ["Hays Inlet is a saltwater inlet off Bramble Bay in Moreton Bay Region, Queensland, Australia."], "type": "natural", "name": "Hays Inlet", "om_id": 3020492439}}, {"geometry": {"type": "Point", "coordinates": [145.398, -37.931]}, "type": "Feature", "properties": {"sentences": ["Menzies Creek is a township in Melbourne, Victoria, Australia, 42 km south-east of Melbourne's central business district.", "Its local government area is the Yarra Ranges Shire."], "type": "place", "name": "Menzies Creek", "om_id": 2603827759}}, {"geometry": {"type": "Point", "coordinates": [144.796, -37.701]}, "type": "Feature", "properties": {"sentences": ["Taylors Lakes is a suburb 23 km north-west of Melbourne, Victoria, Australia.", "Its local government area is the City of Brimbank.", "Taylors Lakes is bounded by the Calder Freeway in the north, Overnewton Road and Taylors Creek in the east, Lady Nelson Way in the south and the Bendigo railway line in the west."], "type": "place", "name": "Taylors Lakes", "om_id": 2578986258}}, {"geometry": {"type": "Point", "coordinates": [152.98833333, -27.29611111]}, "type": "Feature", "properties": {"type": "amenity", "name": "Pine Rivers State High School", "om_id": 233816140}}, {"geometry": {"type": "Point", "coordinates": [151.266944, -27.155]}, "type": "Feature", "properties": {"sentences": ["Dalby Airport (IATA: DBY, ICAO: YDAY) is a small airport located 1.2 km north of the town of Dalby, Queensland Australia."], "type": "amenity", "name": "Dalby Airport", "om_id": 71365024}}, {"geometry": {"type": "Point", "coordinates": [145.229, -37.844]}, "type": "Feature", "properties": {"sentences": ["Wantirna is a suburb of Melbourne in Victoria, Australia.", "It is 24 km east of Melbourne's central business district.", "Its local government area is the City of Knox."], "type": "amenity barrier", "name": "Wantirna Primary School", "om_id": 19495678}}, {"geometry": {"type": "Point", "coordinates": [144.91083333, -37.78277778]}, "type": "Feature", "properties": {"sentences": ["Melbourne Showgrounds is located in the inner north-western suburb of Ascot Vale, Victoria, Australia, next door to Flemington Racecourse."], "type": "landuse", "name": "Royal Melbourne Showgrounds", "om_id": 25758487}}, {"geometry": {"type": "Point", "coordinates": [153.0426, -27.4649]}, "type": "Feature", "properties": {"type": "building amenity", "name": "New Farm Cinemas", "om_id": 312533616}}, {"geometry": {"type": "Point", "coordinates": [144.52208333, -36.86541667]}, "type": "Feature", "properties": {"sentences": ["Lake Eppalock is a reservoir in North Central Victoria, Australia, about 130 kilometres (81 mi) northwest of Melbourne."], "type": "waterway", "name": "Lake Eppalock Dam", "om_id": 327004441}}, {"geometry": {"type": "Point", "coordinates": [115.54, -20.46]}, "type": "Feature", "properties": {"sentences": ["The Montebello Islands, also known as the Monte Bello Islands, are an archipelago of around 174 small islands (about 92 of which are named) lying 20 kilometres (12 mi) north of Barrow Island and 130 kilometres (81 mi) off the Pilbara coast of north-western Australia."], "type": "place", "name": "Montebello Islands", "om_id": 3264145377}}, {"geometry": {"type": "Point", "coordinates": [146.92777778, -36.25055556]}, "type": "Feature", "properties": {"sentences": ["Staghorn Flat is a rural locality in the Yackandandah Valley of north east Victoria, situated between Wodonga and Yackandandah."], "type": "place", "name": "Staghorn Flat", "om_id": 3003768495}}, {"geometry": {"type": "Point", "coordinates": [148.26666667, -37.51666667]}, "type": "Feature", "properties": {"sentences": ["== Course and features == The Buchan River rises below Blue Hill in a remote alpine wilderness area within the Alpine National Park, and flows generally south through the town of Buchan.", "The river is joined by the Murrindal River and eight minor tributaries, before reaching its confluence with the Snowy River near Lucas Point in the Shire of East Gippsland.", "At Buchan, the river is traversed by Gelantipy Road, and a little further to the east, the Buchan Orbost Road.", "Parks Victoria.", "Government of Victoria.", "Government of Victoria."], "type": "waterway", "name": "Buchan River", "om_id": 191327957}}, {"geometry": {"type": "Point", "coordinates": [149.8, -36.83333333]}, "type": "Feature", "properties": {"sentences": ["Yellow Pinch Dam is a major off-stream ungated rockfill embankment dam across the Yellow Pinch Creek upstream of Merimbula in the South Coast region of New South Wales, Australia."], "type": "waterway", "name": "Yellow Pinch Dam", "om_id": 426785592}}, {"geometry": {"type": "Point", "coordinates": [152.88, -26.5503]}, "type": "Feature", "properties": {"sentences": ["Cooloolabin Dam is located to the west of Yandina in the headwaters of the South Maroochy River waterway."], "type": "natural", "name": "Cooloolabin Dam", "om_id": 29453943}}, {"geometry": {"type": "Point", "coordinates": [144.9, -38.35]}, "type": "Feature", "properties": {"type": "amenity", "name": "Rosebud Primary School", "om_id": 22915936}}, {"geometry": {"type": "Point", "coordinates": [153.2913, -28.8092]}, "type": "Feature", "properties": {"sentences": ["Lismore Base Hospital is a major public teaching hospital in the Northern Rivers region of New South Wales, Australia, located in the city of Lismore."], "type": "amenity", "name": "Lismore Base Hospital", "om_id": 332532205}}, {"geometry": {"type": "Point", "coordinates": [149.4, -32.01666667]}, "type": "Feature", "properties": {"sentences": ["The town is located on the north-western edges of the Sydney basin.", "It is a relatively isolated township with the two nearest rural centres of Mudgee and Dubbo situated approximately to the 60 km south and 100 km west respectively."], "type": "building railway", "name": "Dunedoo", "om_id": 175580017}}, {"geometry": {"type": "Point", "coordinates": [118.5, -28.7]}, "type": "Feature", "properties": {"sentences": ["Poison Rocks, historically known as Poison Rock, is a rock formation in Western Australia."], "type": "natural", "name": "Poison Rocks", "om_id": 3020142031}}, {"geometry": {"type": "Point", "coordinates": [153.04608889, -27.51288611]}, "type": "Feature", "properties": {"sentences": ["It is located within the Greenslopes suburb, on a ridge leading east from Stephens Mountain, a low hill still covered in scrub and overlooking Norman Creek to the west."], "type": "amenity", "name": "Greenslopes Private Hospital", "om_id": 18103175}}, {"geometry": {"type": "Point", "coordinates": [153.05138889, -27.49583333]}, "type": "Feature", "properties": {"sentences": ["Villanova College is a private, Roman Catholic school for boys located in Coorparoo, a southern suburb of Brisbane, Queensland, Australia.", "The college has sporting fields at Tingalpa, in Brisbane's east suburbs."], "type": "amenity", "name": "Villanova College", "om_id": 31608246}}, {"geometry": {"type": "Point", "coordinates": [145.04138889, -37.82277778]}, "type": "Feature", "properties": {"type": "amenity", "name": "Swinburne Senior Secondary College", "om_id": 514120025}}, {"geometry": {"type": "Point", "coordinates": [144.90833333, -37.85194444]}, "type": "Feature", "properties": {"sentences": ["From its source in the Yarra Ranges, it flows 242 kilometres (150 mi) west through the Yarra Valley which opens out into plains as it winds its way through Greater Melbourne before emptying into Hobsons Bay in northernmost Port Phillip.", "He selected a site on the northern bank of the Yarra River, declaring that \"this will be the place for a village\".", "Prior to settlements, the area now occupied by Elizabeth street was a gully off the river.", "=== Water colour ===  The Yarra River has been derogatively called \"the river that runs upside down\", a jibe at its high turbidity.", "The river's lower reaches travel through central Melbourne.", "The total catchment area is approximately 4,000 square kilometres (1,500 sq mi).", "Herring Island is a small island at South Yarra which has a punt which takes people on to the park.", "The resulting island between the new and old courses of the river was named Coode Island, and is now part of the mainland with the former course to the north filled in.", "The river flows into Port Phillip, the site being extensively altered as part of the Port of Melbourne, Australia's busiest seaport.", "Yarra."], "type": "waterway", "name": "Yarra River", "om_id": 293393326}}, {"geometry": {"type": "Point", "coordinates": [119.09444444, -19.57777778]}, "type": "Feature", "properties": {"sentences": ["It lies 42 km offshore from Larrey Point and the mouth of the De Grey River, and 96 km north-east of Port Hedland, on the Pilbara coast of north-west Western Australia."], "type": "place natural", "name": "Bedout Island", "om_id": 187691744}}, {"geometry": {"type": "Point", "coordinates": [138.493824, -34.810086]}, "type": "Feature", "properties": {"sentences": ["Fort Largs is a historic defence site in the seaside suburb of Taperoo near Port Adelaide, approximately 18 km (11 mi) north west of Adelaide's centre."], "type": "amenity", "name": "Fort Largs Police Academy", "om_id": 81622595}}, {"geometry": {"type": "Point", "coordinates": [133.95, -24.01666667]}, "type": "Feature", "properties": {"sentences": ["The Ewaninga Conservation Reserve is an area of low sand dunes, rocky outcrops and a claypan about 35 km south of Alice Springs, Northern Territory, Australia."], "type": "boundary", "name": "Ewaninga Rock Carvings Conservation Reserve", "om_id": 223259440}}, {"geometry": {"type": "Point", "coordinates": [152.35111111, -27.51527778]}, "type": "Feature", "properties": {"sentences": ["The Lake Clarendon Dam is a rock and earth-fill embankment dam with an un-gated spillway located off-stream in the South East region of Queensland, Australia.", "The main purpose of the dam is for irrigation of the Lockyer Valley.", "The resultant impounded reservoir is called Lake Clarendon."], "type": "natural", "name": "Lake Clarendon", "om_id": 46149617}}, {"geometry": {"type": "Point", "coordinates": [144.964734, -37.811563]}, "type": "Feature", "properties": {"sentences": ["Lonsdale Street is a main street and thoroughfare in the city centre of Melbourne, Australia.", "It runs roughly east-west and was laid out in 1837 as one of Melbourne's original boundaries within the Hoddle Grid.", "The street extends from Spring Street in the east to Spencer Street in the west."], "type": "public_transport highway", "name": "Lonsdale Street", "om_id": 2584835855}}, {"geometry": {"type": "Point", "coordinates": [115.87, -31.94583333]}, "type": "Feature", "properties": {"sentences": ["The Paddock had been reclaimed from part of Stone's Lake, which was part of a lake system known as The Great Lakes District which included Lake Monger and Herdsman Lake."], "type": "leisure", "name": "Perth Oval", "om_id": 421472834}}, {"geometry": {"type": "Point", "coordinates": [143.17972222, -11.70333333]}, "type": "Feature", "properties": {"sentences": ["Saunders Islands is a national park in Far North Queensland, Australia, 2031 km northwest of Brisbane.", "== See also ==  Protected areas of Queensland"], "type": "leisure boundary", "name": "Saunders Islands National Park", "om_id": 104128771}}, {"geometry": {"type": "Point", "coordinates": [151.77805556, -23.24833333]}, "type": "Feature", "properties": {"sentences": ["Capricornia Cays is both a national park and a scientific national park in Queensland (Australia), located 486 km and 472 km north of the state capital Brisbane respectively.", "Access to the islands via boat is available from Gladstone, Bundaberg and 1770."], "type": "natural leisure place boundary", "name": "Capricornia Cays National Park", "om_id": 104654942}}, {"geometry": {"type": "Point", "coordinates": [151.06055556, -33.73333333]}, "type": "Feature", "properties": {"type": "amenity", "name": "Pennant Hills High School", "om_id": 313367866}}, {"geometry": {"type": "Point", "coordinates": [145.09055556, -37.70916667]}, "type": "Feature", "properties": {"type": "amenity", "name": "Greensborough College", "om_id": 28824855}}, {"geometry": {"type": "Point", "coordinates": [144.98305556, -37.78555556]}, "type": "Feature", "properties": {"sentences": ["Its zone is here."], "type": "amenity", "name": "Fitzroy Primary School", "om_id": 32452968}}, {"geometry": {"type": "Point", "coordinates": [153.09696111, -27.5459]}, "type": "Feature", "properties": {"type": "amenity", "name": "Brisbane Adventist College", "om_id": 386276580}}, {"geometry": {"type": "Point", "coordinates": [145.045, -37.8433]}, "type": "Feature", "properties": {"sentences": ["Alia College is an independent secondary school in Hawthorn East, Victoria, Australia."], "type": "amenity", "name": "Alia College", "om_id": 207002068}}, {"geometry": {"type": "Point", "coordinates": [144.431763, -37.903032]}, "type": "Feature", "properties": {"sentences": ["The You Yangs Regional Park is a park in southern central Victoria, Australia.", "The park encompasses much of the southern areas of the You Yangs, a granite range that rises from the Werribee Plains, 60km southwest of Melbourne.", "== Access == The main public entrance to the park is located on Branch Road, near the intersection of Forest Road North, 5 km north of Lara and 5 km west of Little River."], "type": "boundary leisure", "name": "You Yangs Regional Park", "om_id": 23368330}}, {"geometry": {"type": "Point", "coordinates": [138.3, -35.43333333]}, "type": "Feature", "properties": {"sentences": ["The Bungala River is a river in the Australian state of South Australia that runs north west through the Fleurieu Peninsula, through primarily agricultural surroundings and drains into Gulf St Vincent.", "The Bungala runs past the town of Yankalilla, and enters the sea near Normanville.", "It originates in the lower Inman Valley region a mountainous catchment area."], "type": "natural", "name": "Bungala River", "om_id": 48891987}}, {"geometry": {"type": "Point", "coordinates": [151.92949167, -27.57405833]}, "type": "Feature", "properties": {"type": "amenity", "name": "Concordia Lutheran College", "om_id": 42295705}}, {"geometry": {"type": "Point", "coordinates": [146.30694444, -36.41583333]}, "type": "Feature", "properties": {"sentences": ["Wangaratta Airport (IATA: WGT, ICAO: YWGT) is located about 5 km (3.1 mi) from Wangaratta, Victoria, Australia just off the Hume Highway."], "type": "aeroway", "name": "Wangaratta Airport", "om_id": 311488559}}, {"geometry": {"type": "Point", "coordinates": [141.9475, -36.11166667]}, "type": "Feature", "properties": {"sentences": ["The Wimmera River, an inland intermittent river of the Wimmera catchment, is located in the Grampians and Wimmera regions of the Australian state of Victoria.", "Rising in the Pyrenees, on the northern slopes of the Great Dividing Range, the Wimmera River flows generally north by west and drains in Lake Hindmarsh and Lake Albacutya, a series of ephemeral lakes that, whilst they do not directly empty into a defined watercourse, they form part of the Murray River catchment of the Murray-Darling basin."], "type": "waterway", "name": "Wimmera River", "om_id": 2628100553}}, {"geometry": {"type": "Point", "coordinates": [151.2712, -33.85582]}, "type": "Feature", "properties": {"sentences": ["2"], "type": "building historic tourism", "name": "Vaucluse House", "om_id": 176726573}}, {"geometry": {"type": "Point", "coordinates": [151.125, -33.93333333]}, "type": "Feature", "properties": {"sentences": ["Wolli Creek, an urban watercourse of the Cooks River catchment, is located in the southern suburbs of Sydney, in New South Wales, Australia.", "== Course and features == Wolli Creek rises south of Narwee, within Beverly Hills Park, Beverly Hills, and flows generally east northeast through Wolli Creek Valley and Wolli Creek Regional Park, joined by its major tributary, Bardwell Creek, before reach", "The creek is a lined channel between Kingsgrove Road, Kingsgrove and Bexley Road, Bexley North where it then enters the Wolli Creek Valley."], "type": "waterway", "name": "Wolli Creek", "om_id": 381308992}}, {"geometry": {"type": "Point", "coordinates": [152.83333333, -27.61666667]}, "type": "Feature", "properties": {"sentences": ["New Chum is a suburb of Ipswich, Queensland, Australia."], "type": "place", "name": "New Chum", "om_id": 2634716660}}, {"geometry": {"type": "Point", "coordinates": [150.78861111, -34.56111111]}, "type": "Feature", "properties": {"sentences": ["Illawarra Regional Airport (also known as Wollongong Airport) (IATA: WOL, ICAO: YWOL) is an airport located in Albion Park Rail, 18 km (11 mi) southwest of Wollongong, New South Wales, Australia.", "== Overview == Illawarra Regional Airport, owned and operated by Shellharbour City Council, is located at the intersection of the F6, Princes Highway and Illawarra Highway at Albion Park Rail.", "The airport is an 80-minute drive from Sydney Airport and 60 minutes from Sydney's southern suburbs."], "type": "building tourism", "name": "Historical Aircraft Restoration Society", "om_id": 86609995}}, {"geometry": {"type": "Point", "coordinates": [144.32, -38.12]}, "type": "Feature", "properties": {"sentences": ["Hamlyn Heights is a residential suburb of Geelong, Victoria, Australia.", "It located to the west of the city on hills that overlook Corio Bay.", "The suburb boundaries are Church St, Ballarat Rd, Moorabool River and two unmarked boundaries extending between Church St to Moorabool River and between Moorabool River and Ballarat Rd."], "type": "place", "name": "Hamlyn Heights", "om_id": 2577555717}}, {"geometry": {"type": "Point", "coordinates": [151.01361111, -33.79583333]}, "type": "Feature", "properties": {"sentences": ["The Cumberland Highway is a 34-kilometre (21 mi) long urban highway located in Sydney, New South Wales, Australia.", "== History ==  The original western Sydney Bypass was Ring Road 5, which ran from the Pacific Highway and the Hume Highway with Parramatta in between.", "The highway was named \"Cumberland Highway\" after completion."], "type": "highway", "name": "Cumberland Highway", "om_id": 172560846}}, {"geometry": {"type": "Point", "coordinates": [133.83194444, -32.2425]}, "type": "Feature", "properties": {"sentences": ["Laura Bay Conservation Park is a protected area located in the Australian state of South Australia on the west coast of Eyre Peninsula adjoining the headland of Laura Bay Point in the gazetted locality of Laura Bay about 20 kilometres (12 mi) south east of the town of Ceduna.", "Mangrove areas in South Australia have been markedly depleted."], "type": "landuse", "name": "Laura Bay Conservation Park", "om_id": 99323572}}, {"geometry": {"type": "Point", "coordinates": [144.99361111, -37.8475]}, "type": "Feature", "properties": {"sentences": ["The building is located on the corner of Chapel Street and Commercial Road in the well-known retail precinct of Prahran, a suburb in the city of Melbourne, Victoria, Australia.", "Government of Victoria."], "type": "building shop landuse", "name": "Pran Central", "om_id": 132394722}}, {"geometry": {"type": "Point", "coordinates": [144.886489, -38.492687]}, "type": "Feature", "properties": {"sentences": ["The Cape Schanck Lighthouse was built in 1859 as the second coastal lighthouse in the Australian state of Victoria.", "It is located on the southernmost tip of the Mornington Peninsula.", "\"Lighthouses of Australia: Victoria\".", "University of North Carolina at Chapel Hill."], "type": "building man_made", "name": "Cape Schanck Lighthouse", "om_id": 172238032}}, {"geometry": {"type": "Point", "coordinates": [138.26825, -35.495613]}, "type": "Feature", "properties": {"sentences": ["Wirrina Cove is a locality on the Fleurieu Peninsula, South Australia.", "It is located between the coastal towns of Second Valley and Normanville on Yankalilla Bay."], "type": "boundary", "name": "Wirrina Cove", "om_id": 249316574}}, {"geometry": {"type": "Point", "coordinates": [153.06861111, -27.45194444]}, "type": "Feature", "properties": {"type": "sport leisure", "name": "Queensland State Hockey Centre", "om_id": 42336592}}, {"geometry": {"type": "Point", "coordinates": [152.24888889, -29.53333333]}, "type": "Feature", "properties": {"sentences": ["The Boundary Falls is a waterfall that is located within the Gibraltar Range National Park, adjacent to the Gwydir Highway in the New England region of New South Wales, Australia.", "The falls are located approximately 63 kilometres (39 mi) east of Glen Innes and 95 kilometres (59 mi) west of Grafton, and a campsite is located nearby on the site of a former sawmill within a dry open eucalypt forest."], "type": "waterway", "name": "Boundary Falls", "om_id": 3462833324}}, {"geometry": {"type": "Point", "coordinates": [148.2, -40.25]}, "type": "Feature", "properties": {"sentences": ["Little Dog Island is a square, flat granite island, with an area of 83 ha, in south-eastern Australia.", "It is a game reserve."], "type": "place natural", "name": "Little Dog Island", "om_id": 68881780}}, {"geometry": {"type": "Point", "coordinates": [146.01166667, -17.16361111]}, "type": "Feature", "properties": {"sentences": ["Frankland Group is a national park in Queensland, Australia, 1353 km northwest of Brisbane.", "The five continental islands of the Franklin group are High, Normanby, Mabel, Round and Russel isles, which lie about 10 km offshore, and are about 45 km south east of Cairns."], "type": "natural leisure boundary", "name": "Frankland Group National Park", "om_id": 104624809}}, {"geometry": {"type": "Point", "coordinates": [134.18333333, -19.63444444]}, "type": "Feature", "properties": {"sentences": ["Tennant Creek Airport (IATA: TCA, ICAO: YTNK) is a small regional airport located near Tennant Creek, Northern Territory, Australia."], "type": "aeroway", "name": "Tennant Creek Airport", "om_id": 174638392}}, {"geometry": {"type": "Point", "coordinates": [135.71666667, -14.27166667]}, "type": "Feature", "properties": {"sentences": ["Numbulwar Airport (IATA: NUB, ICAO: YNUM) is located 1.5 nautical miles (2.8 km; 1.7 mi) west of Numbulwar, Northern Territory, Australia   == References =="], "type": "aeroway", "name": "Numbulwar Airport", "om_id": 301174035}}, {"geometry": {"type": "Point", "coordinates": [152.46666667, -31.43333333]}, "type": "Feature", "properties": {"sentences": ["Ellenborough River, a perennial river of the Hastings River catchment, is located in the Mid North Coast region of New South Wales, Australia.", "== Course and features == Ellenborough River rises on the eastern slopes of the Great Dividing Range, southwest of Blue Knob, and flows generally northeast before reaching its confluence with the Hastings River, near Ellenborough.", "The river descends 717 metres (2,352 ft) over its 70 kilometres (43 mi) course."], "type": "waterway", "name": "Ellenborough River", "om_id": 336621556}}, {"geometry": {"type": "Point", "coordinates": [151.72833333, -32.925]}, "type": "Feature", "properties": {"type": "amenity", "name": "Hunter School of the Performing Arts", "om_id": 202062489}}, {"geometry": {"type": "Point", "coordinates": [136.89166667, -33.66666667]}, "type": "Feature", "properties": {"sentences": ["Cowell Airport (IATA: CCW, ICAO: YCWL) is an airport located 2 nautical miles (3.7 km; 2.3 mi) northwest of Cowell, in the Eyre Peninsula region of South Australia."], "type": "aeroway", "name": "Cowell Airport", "om_id": 173167831}}, {"geometry": {"type": "Point", "coordinates": [150.84166667, -34.55833333]}, "type": "Feature", "properties": {"type": "amenity emergency", "name": "Shellharbour Hospital", "om_id": 317355138}}, {"geometry": {"type": "Point", "coordinates": [153.0572, -27.5657]}, "type": "Feature", "properties": {"sentences": ["Robertson is an outer suburb in the south of Brisbane, Australia.", "It is 13 kilometres (8 mi) south of the CBD.", "== References ==   == External links == ourbrisbane.com website, Robertson section University of Queensland: Queensland Places: Robertson"], "type": "amenity", "name": "Robertson State Primary School", "om_id": 23854844}}, {"geometry": {"type": "Point", "coordinates": [152.78333333, -27.6]}, "type": "Feature", "properties": {"sentences": ["Moores Pocket is a suburb of Ipswich, Queensland, Australia."], "type": "place", "name": "Moores Pocket", "om_id": 2634733145}}, {"geometry": {"type": "Point", "coordinates": [152.78333333, -27.58333333]}, "type": "Feature", "properties": {"sentences": ["North Tivoli is a small suburb of Ipswich, Queensland, Australia.", "== Geography == The northern boundary of North Tivoli follows the Warrego Highway."], "type": "place", "name": "North Tivoli", "om_id": 2634733144}}, {"geometry": {"type": "Point", "coordinates": [151.181484, -33.799555]}, "type": "Feature", "properties": {"sentences": ["Chatswood Oval is located south of the Chatswood railway station in northern Sydney, Australia.", "The approximate dimensions of the oval are 145 metres by 112 metres."], "type": "sport leisure", "name": "Chatswood Oval", "om_id": 205137168}}, {"geometry": {"type": "Point", "coordinates": [138.7294, -33.9378]}, "type": "Feature", "properties": {"type": "building", "name": "Martindale Hall", "om_id": 220684351}}, {"geometry": {"type": "Point", "coordinates": [145.74138889, -16.96083333]}, "type": "Feature", "properties": {"sentences": ["Woree State School (WSS) is a public school situated in the southern suburbs of Cairns, North Queensland, Australia."], "type": "amenity", "name": "Woree State High School", "om_id": 409394978}}, {"geometry": {"type": "Point", "coordinates": [151.22263, -33.94709]}, "type": "Feature", "properties": {"type": "sport leisure", "name": "Hensley Athletic Field", "om_id": 172838957}}, {"geometry": {"type": "Point", "coordinates": [149.77569167, -34.00398056]}, "type": "Feature", "properties": {"sentences": ["The Retreat River rises on the western slopes of the Great Dividing Range, near Shooters Hill, and flows generally to the south-west, before reaching its confluence with the Abercrombie River, near Hadley.", "The river flows adjacent to the Abercrombie River National Park, with access at The Sink campground."], "type": "waterway", "name": "Retreat River", "om_id": 442172861}}, {"geometry": {"type": "Point", "coordinates": [144.35, -40.46666667]}, "type": "Feature", "properties": {"sentences": ["Black Pyramid Rock is an island nature reserve, with an area of 40 ha, in Bass Strait, south-eastern Australia."], "type": "natural place", "name": "Black Pyramid Rock", "om_id": 158088361}}, {"geometry": {"type": "Point", "coordinates": [130.88361111, -12.37305556]}, "type": "Feature", "properties": {"type": "amenity", "name": "Charles Darwin University", "om_id": 154615415}}, {"geometry": {"type": "Point", "coordinates": [150.68333333, -23.23333333]}, "type": "Feature", "properties": {"sentences": ["Mount Wheeler or Gawula is a small mountain situated between Rockhampton and Yeppoon, in Queensland, Australia."], "type": "natural", "name": "Mount Wheeler", "om_id": 2844344382}}, {"geometry": {"type": "Point", "coordinates": [145.183, -37.663]}, "type": "Feature", "properties": {"sentences": ["Wattle Glen is a suburb of Melbourne, Victoria, Australia, 25 km north-east of Melbourne's Central Business District.", "Its local government area is the Shire of Nillumbik.", "At the 2011 census, Wattle Glen had a population of 1,946."], "type": "place", "name": "Wattle Glen", "om_id": 2579252818}}, {"geometry": {"type": "Point", "coordinates": [151.2075, -33.83138889]}, "type": "Feature", "properties": {"sentences": ["Marist College North Shore (MCNS) (often shortened to Marist North Shore), is a Roman Catholic, secondary day school for boys, located in North Sydney, New South Wales, Australia, a suburb on Sydney's Lower North Shore."], "type": "amenity", "name": "Marist College North Shore", "om_id": 36072633}}, {"geometry": {"type": "Point", "coordinates": [151.03111111, -33.81638889]}, "type": "Feature", "properties": {"sentences": ["Ponds/Subiaco Creek, a joint northern tributary of the Parramatta River, is a creek north-west of Sydney Harbour, located in the Northern Suburbs region of Sydney, New South Wales, Australia.", "The Creek is also known as The Ponds and the Subiaco Creek respectively.", "It is approximately 5 kilometres (3.1 mi) long.", "Subiaco Creek flows through one of the earliest areas settled by European colonists in Australia.", "As a consequence, the creek was known as Schaffers Creek."], "type": "waterway", "name": "Subiaco Creek", "om_id": 107824192}}, {"geometry": {"type": "Point", "coordinates": [147.33361111, -42.88694444]}, "type": "Feature", "properties": {"type": "building", "name": "Salamanca Arts Centre", "om_id": 319368538}}, {"geometry": {"type": "Point", "coordinates": [153.04611111, -27.43527778]}, "type": "Feature", "properties": {"sentences": ["Allan Border Field is a cricket ground in the Brisbane suburb of Albion in Queensland."], "type": "sport leisure", "name": "Allan Border Field", "om_id": 126050318}}, {"geometry": {"type": "Point", "coordinates": [138.59777778, -34.91944444]}, "type": "Feature", "properties": {"sentences": ["The Festival Centre is located approximately 50 metres north of the corner of North Terrace and King William Street, lying near the banks of the River Torrens and adjacent to Elder Park.", "The Theatre seats 1009 people, and is located at 58 Grote Street, Adelaide."], "type": "building amenity", "name": "Dunstan Playhouse", "om_id": 26624544}}, {"geometry": {"type": "Point", "coordinates": [151.58361111, -24.40916667]}, "type": "Feature", "properties": {"sentences": ["Mount Colosseum is a national park in Central Queensland, Australia, 370 kilometres (230 mi) northwest of Brisbane and about 6 kilometres (4 mi) south of the town of Miriam Vale."], "type": "leisure boundary", "name": "Mount Colosseum National Park", "om_id": 105589477}}, {"geometry": {"type": "Point", "coordinates": [147.8, -42.91666667]}, "type": "Feature", "properties": {"sentences": ["Dunalley Bay refers to a bay on the North East aspect of Norfolk Bay, which lies adjacent to Dunalley, Tasmania, the largest town of Norfolk Bay   == References =="], "type": "natural", "name": "Dunalley Bay", "om_id": 3020491799}}, {"geometry": {"type": "Point", "coordinates": [151.21, -33.8633]}, "type": "Feature", "properties": {"sentences": ["The Macquarie Place Park is an heritage-listed small triangular urban park located in the central business district of Sydney, New South Wales, Australia.", "Along with Hyde Park it is the oldest public park in Australia.", "The Great North Walk to Newcastle southern terminus is at the obelisk in Macquarie Place."], "type": "highway", "name": "Macquarie Place", "om_id": 4354657}}, {"geometry": {"type": "Point", "coordinates": [145.8926, -41.0483]}, "type": "Feature", "properties": {"sentences": ["Marist Regional College is a Roman Catholic, co-educational, secondary school, located in Parklands, a suburb of Burnie, Tasmania, Australia.", "== Campus == Marist, as the college is colloquially known, is situated less than 1 km from Burnie Park, in suburban Parklands."], "type": "amenity", "name": "Marist Regional College", "om_id": 158881873}}, {"geometry": {"type": "Point", "coordinates": [145.138, -37.9083]}, "type": "Feature", "properties": {"sentences": ["The original campus was in the south-eastern Melbourne suburb of Clayton (in what is now the City of Monash).", "=== Parkville campus === The Parkville campus is situated in the Melbourne suburb of Parkville, around 2 km north of the Melbourne CBD on Royal Parade.", "The campus is located in the bayside suburb of Frankston on the edge of Melbourne.", "The campus sits in the Latrobe Valley town of Churchill, 142 km east of Melbourne on 63 hectares of landscaped grounds.", "they are citizens of the country in which their main campus is located)."], "type": "route highway", "name": "Monash University", "om_id": 925369830}}, {"geometry": {"type": "Point", "coordinates": [144.6, -38.28333333]}, "type": "Feature", "properties": {"sentences": ["Point Lonsdale is a coastal township on the Bellarine Peninsula, near Queenscliff, Victoria, Australia.", "The headland is dominated by the Point Lonsdale Lighthouse.", "This tree can be found at the corner of Grimes Road and Point Lonsdale Rd, Point Lonsdale, Victoria."], "type": "highway", "name": "Point Lonsdale Road", "om_id": 17117969}}, {"geometry": {"type": "Point", "coordinates": [116.474929, -31.554237]}, "type": "Feature", "properties": {"sentences": ["St Aloysius Convent of Mercy is a former Catholic convent located on Stirling Terrace in Toodyay, Western Australia, part of a larger site owned by the Church."], "type": "building", "name": "St Aloysius Convent of Mercy", "om_id": 273892632}}, {"geometry": {"type": "Point", "coordinates": [144.39, -38.18]}, "type": "Feature", "properties": {"sentences": ["Whittington is a residential suburb of Geelong, Victoria, Australia, located 4 km south-east of the city centre."], "type": "amenity", "name": "Whittington Primary School", "om_id": 49187982}}, {"geometry": {"type": "Point", "coordinates": [152.97972222, -27.23055556]}, "type": "Feature", "properties": {"sentences": ["Dakabin State High School is a large secondary school located at Dakabin, north of Brisbane, Queensland, Australia."], "type": "amenity", "name": "Dakabin State High School", "om_id": 26494256}}, {"geometry": {"type": "Point", "coordinates": [117.21666667, -31.62222222]}, "type": "Feature", "properties": {"sentences": ["Cunderdin Airport (ICAO: YCUN) is located at Cunderdin, Western Australia."], "type": "aeroway", "name": "Cunderdin Airport", "om_id": 3460811992}}, {"geometry": {"type": "Point", "coordinates": [146.07059167, -34.28139722]}, "type": "Feature", "properties": {"sentences": ["Wade High School is a high school in Griffith, New South Wales, Australia."], "type": "amenity", "name": "Wade High School", "om_id": 364525323}}, {"geometry": {"type": "Point", "coordinates": [145.627014, -38.02955]}, "type": "Feature", "properties": {"sentences": ["Mill Valley Ranch is a Christian Youth Camp in Tynong North, 70 km (43 mi) South East of Melbourne, Victoria, Australia."], "type": "leisure", "name": "Mill Valley Ranch", "om_id": 432864907}}, {"geometry": {"type": "Point", "coordinates": [146.519, -18.769]}, "type": "Feature", "properties": {"sentences": ["Esk Island is one of the islands in the Great Palm Island group."], "type": "place", "name": "Esk Island", "om_id": 69255197}}, {"geometry": {"type": "Point", "coordinates": [150.78555556, -34.49972222]}, "type": "Feature", "properties": {"sentences": ["Dapto High School is a high school located in Dapto, New South Wales, Australia."], "type": "amenity", "name": "Dapto High School", "om_id": 413047205}}, {"geometry": {"type": "Point", "coordinates": [144.22833333, -36.14277778]}, "type": "Feature", "properties": {"sentences": ["The Terrick Terrick National Park is a national park located in the region of Victoria, Australia.", "The 3,880-hectare (9,600-acre) national park was declared in June 1988 and is situated approximately 225 kilometres (140 mi) northwest of Melbourne, 4 kilometres (2.5 mi) north of the town of Mitiamo and 65 kilometres (40 mi) north of Bendigo."], "type": "boundary natural leisure", "name": "Terrick Terrick National Park", "om_id": 79612045}}, {"geometry": {"type": "Point", "coordinates": [151.2, -32.86666667]}, "type": "Feature", "properties": {"sentences": ["Congewai Creek, a watercourse of the Hunter River catchment, is located in the Hunter district of New South Wales, Australia.", "== Course == The Congewai Creek rises below Myall Range, about 3 kilometres (1.9 mi) southeast of Quorrobolong trig station within the Watagans National Park.", "The river flows generally west by south, then north by west, then northwest by north, then west by north, then west southwest, and then south, joined by four tributaries including the Cedar Creek, before reaching its confluence with the Wollombi Brook near Wollombi.", "The river descends 106 kilometres (66 mi) over its 45 kilometres (28 mi) course."], "type": "waterway", "name": "Congewai Creek", "om_id": 174420546}}, {"geometry": {"type": "Point", "coordinates": [151.14712, -33.72615]}, "type": "Feature", "properties": {"sentences": ["North Turramurra is a suburb on the Upper North Shore of Sydney, in the state of New South Wales, Australia.", "North Turramurra is located 20 kilometres (12 mi) north-west of the Sydney central business district, in the local government area of Ku-ring-gai Council.", "=== Restaurants === The village has a number of well known and well loved restaurants on the north shore.", "Burns Road creates a boundary with Turramurra, to the south.", "Dictionary of Sydney."], "type": "amenity", "name": "Turramurra North Public School", "om_id": 396821318}}, {"geometry": {"type": "Point", "coordinates": [145.97944444, -36.5525]}, "type": "Feature", "properties": {"type": "building tourism", "name": "Benalla Art Gallery", "om_id": 292250300}}, {"geometry": {"type": "Point", "coordinates": [144.84739167, -37.82785]}, "type": "Feature", "properties": {"sentences": ["Altona Gate Shopping Centre is a sub regional shopping centre located in Altona North, Victoria, a suburb of Melbourne, Australia.", "It fronts onto Millers Road just south of the West Gate Freeway exit."], "type": "shop landuse", "name": "Altona Gate Shopping Centre", "om_id": 211261191}}, {"geometry": {"type": "Point", "coordinates": [145.058, -37.941]}, "type": "Feature", "properties": {"sentences": ["Moorabbin is a suburb in Melbourne, Victoria, Australia, 15 km south-east of Melbourne's central business district.", "Its local government area is the City of Kingston."], "type": "place", "name": "Moorabbin", "om_id": 2596059398}}, {"geometry": {"type": "Point", "coordinates": [152.9043, -27.5741]}, "type": "Feature", "properties": {"sentences": ["== Description == Wolston House is on a rural site between Brisbane and Ipswich overlooking the Brisbane River."], "type": "leisure", "name": "Wolston House", "om_id": 312528414}}, {"geometry": {"type": "Point", "coordinates": [152.03333333, -27.46666667]}, "type": "Feature", "properties": {"sentences": ["Murphys Creek is a town and locality in the Lockyer Valley Region, Queensland, Australia, located at the foot of the Great Dividing Range.", "== History == Murphys Creek developed as a railway town on the line between the regional city of Toowoomba and settlements to the east, including Helidon, Ipswich and Brisbane.", "A railway station in the town was opened in 1867, as a part of the Ipswich-Toowoomba segment of the Southern and Western Railway."], "type": "waterway", "name": "Murphys Creek", "om_id": 410248094}}, {"geometry": {"type": "Point", "coordinates": [151.52027778, -33.06222222]}, "type": "Feature", "properties": {"sentences": ["The station is located near the township of Dora Creek, on the western shore of Lake Macquarie, New South Wales, Australia and is owned and operated by Origin Energy.", "It is Australia's largest power station."], "type": "landuse", "name": "Eraring Power Station", "om_id": 395531577}}, {"geometry": {"type": "Point", "coordinates": [151.198886, -33.871967]}, "type": "Feature", "properties": {"sentences": ["Harbourside Shopping Centre (also known as Harbourside Darling Harbour) is a large-scale shopping centre in Darling Harbour, close to the Sydney central business district in Australia."], "type": "building shop landuse", "name": "Harbourside Shopping Centre", "om_id": 23646747}}, {"geometry": {"type": "Point", "coordinates": [117.68333333, -29.25]}, "type": "Feature", "properties": {"sentences": ["Paynes Find is a former gold rush settlement approximately 430 kilometres (267 mi) northeast of Perth in the Mid West region of Western Australia."], "type": "place", "name": "Paynes Find", "om_id": 2572608925}}, {"geometry": {"type": "Point", "coordinates": [115.86, -31.9565]}, "type": "Feature", "properties": {"sentences": ["Stirling Gardens is a small public park in Perth, Western Australia.", "Located on the corner of St Georges Terrace and Barrack Street, west of the Government House and north of the Supreme Court buildings, it contains a group of significant sculpture items."], "type": "leisure", "name": "Stirling Gardens", "om_id": 8112594}}, {"geometry": {"type": "Point", "coordinates": [152.99, -27.51611111]}, "type": "Feature", "properties": {"sentences": ["The Indooroopilly Island Conservation Park is a protected conservation park that is located on an island in the Brisbane River, in Brisbane, Queensland, Australia.", "The 6.34-hectare (15.7-acre) island park is the site of one of Australia's largest flying fox colonies, located 7 kilometres (4.3 mi) west of the Brisbane central business district near the suburb of Indooroopilly."], "type": "leisure place boundary", "name": "Indooroopilly Island Conservation Park", "om_id": 70685162}}, {"geometry": {"type": "Point", "coordinates": [147.04166667, -36.11694444]}, "type": "Feature", "properties": {"sentences": ["Mitta Mitta River, a perennial river and a direct tributary of the Murray River within the Murray-Darling basin, is located in the alpine district of Victoria, Australia.", "== Course == The river rises below Mount Bogong, the highest mountain in the Victorian Alps, with the Mitta Mitta River forming at the confluence of the Cobungra River and the Big River, just south of Anglers Rest, flowing generally north, joined by twent", "The Mitta Mitta River is the source of approximately 40% of the Murray's flow."], "type": "waterway", "name": "Mitta Mitta River", "om_id": 174324083}}, {"geometry": {"type": "Point", "coordinates": [152.85277778, -27.68666667]}, "type": "Feature", "properties": {"type": "leisure boundary", "name": "White Rock Conservation Park", "om_id": 104759759}}, {"geometry": {"type": "Point", "coordinates": [151.75, -31.4]}, "type": "Feature", "properties": {"sentences": ["Cooplacurripa River, a perennial river of the Manning River catchment, is located in the Northern Tablelands and Mid North Coast districts of New South Wales, Australia.", "== Course and features == Cooplacurripa River rises on the eastern slopes of the Great Dividing Range, southeast of Branga Plain, south of Walcha, and flows generally southeast by south, joined by two tributaries including the Mummel River and Walcrow Riv", "Cooplacurripa River falls within the Northern NSW Trout Waters and includes the whole of the waters of the river, its creeks and tributaries upstream from its junction with, and including, the Mummel River.", "== See also ==  Rivers of New South Wales List of rivers in New South Wales (A-K) List of rivers of Australia   == References ==   == External links == \"Manning River catchments\" (map)."], "type": "waterway", "name": "Cooplacurripa River", "om_id": 441579664}}, {"geometry": {"type": "Point", "coordinates": [144.89805556, -37.82944444]}, "type": "Feature", "properties": {"sentences": ["It spans the Yarra River, just north of its mouth into Port Phillip, and is a vital link between the inner city (CBD) and Melbourne's western suburbs; with the industrial suburbs in the west and with the city of Geelong, 80 kilometres (50 mi) to the south-west.", "It is one of the busiest road corridors in Australia.", "This makes the West Gate Bridge and West Gate Freeway one of the busiest road corridors in Australia."], "type": "man_made", "name": "West Gate Bridge", "om_id": 389828814}}, {"geometry": {"type": "Point", "coordinates": [141.42611111, -37.61388889]}, "type": "Feature", "properties": {"sentences": ["The Wannon River, a perennial river of the Glenelg Hopkins catchment, is located in the Western District of Victoria, Australia.", "== Location and features == The Wannon River rises below Mount Abrupt, part of the Grampians Range, in the southern fringes of the Grampians National Park.", "The river flows generally south, initially towards Dunkeld, and then north by west and then west, through the town of Cavendish before heading south to the settlement of Wannon.", "From here the river flows west towards Casterton where it reaches its confluence with the Glenelg River.", "Wannon Falls and Nigretta Falls, both waterfalls of note, are found on the river approximately 20 kilometres (12 mi) west of Hamilton."], "type": "waterway", "name": "Wannon River", "om_id": 203862022}}, {"geometry": {"type": "Point", "coordinates": [149.50388889, -37.73916667]},